City_ID,City,Lat,Lng,Max Temp,Humidity,Cloudiness,Wind Speed,Country,Date
0,albany,42.6001,-73.9662,9.21,55,100,4.57,US,1681851705
1,corciano,43.129,12.2874,10.14,82,56,4.12,IT,1681851705
2,mendota,36.7536,-120.3816,16.29,35,100,4.82,US,1681851705
3,longyearbyen,78.2186,15.6401,-0.09,93,75,2.06,SJ,1681851705
4,punta arenas,-53.15,-70.9167,9.06,76,100,3.6,CL,1681851705
5,avarua,-21.2078,-159.775,23.03,94,100,8.23,CK,1681851705
6,dalvik,65.9702,-18.5286,7.84,89,100,3.37,IS,1681851705
7,richmond,37.5538,-77.4603,25.93,15,0,8.23,US,1681851705
8,castro,-24.7911,-50.0119,16.86,97,99,1.46,BR,1681851705
9,chuy,-33.6971,-53.4616,15.42,45,64,5.34,UY,1681851705
10,bemidji,47.4736,-94.8803,11.61,28,0,4.12,US,1681851705
11,rikitea,-23.1203,-134.9692,25.96,75,8,6.84,PF,1681851705
12,hilo,19.7297,-155.09,29.04,67,20,8.23,US,1681851705
13,puerto ayora,-0.7393,-90.3518,28.98,91,87,0.89,EC,1681851705
14,fuerte olimpo,-21.0415,-57.8738,20.45,91,98,2.13,PY,1681851705
15,banjar,-8.19,114.9675,24.26,88,93,2.07,ID,1681851705
16,kyren,51.6828,102.1408,-8.13,84,94,1.3,RU,1681851705
17,bathsheba,13.2167,-59.5167,26.15,70,13,7.87,BB,1681851705
18,ancud,-41.8697,-73.8203,12.64,91,100,4.32,CL,1681851705
19,hobart,-42.8794,147.3294,11.92,76,20,2.57,AU,1681851705
20,east london,-33.0153,27.9116,19.41,84,0,1.6,ZA,1681851705
21,port alfred,-33.5906,26.891,19.64,83,0,3.43,ZA,1681851705
22,jalostotitlan,21.2,-102.4667,29.36,11,14,7.01,MX,1681851705
23,bethel,41.3712,-73.414,14.16,47,0,6.17,US,1681851705
24,dormidontovka,47.7702,134.9076,6.97,75,88,1.9,RU,1681851705
25,nanortalik,60.1432,-45.2371,0.93,91,83,1.87,GL,1681851705
26,arraial do cabo,-22.9661,-42.0278,25.92,83,75,4.12,BR,1681851705
27,coihaique,-45.5752,-72.0662,14.97,55,75,3.6,CL,1681851705
28,santiago del estero,-27.7951,-64.2615,24.74,51,0,1.95,AR,1681851705
29,sedalia,38.7045,-93.2283,24.71,56,100,5.66,US,1681851705
30,busselton,-33.65,115.3333,11.04,83,0,4.28,AU,1681851705
31,tuktoyaktuk,69.4541,-133.0374,-18.0,85,100,4.12,CA,1681851705
32,guerrero negro,27.9769,-114.0611,17.49,57,100,9.52,MX,1681851705
33,beberibe,-4.1797,-38.1306,25.74,88,52,2.51,BR,1681851705
34,lompoc,34.6391,-120.4579,20.99,67,20,10.73,US,1681851705
35,canchungo,12.0672,-16.0333,24.51,66,100,3.57,GW,1681851705
36,byron bay,-28.65,153.6167,16.51,70,100,3.71,AU,1681851705
37,vaini,-21.2,-175.2,25.09,88,100,10.29,TO,1681851705
38,kapaa,22.0752,-159.319,23.39,89,100,7.2,US,1681851705
39,hermanus,-34.4187,19.2345,15.45,81,42,3.46,ZA,1681851705
40,solnechnyy,50.7214,136.6319,2.53,62,100,1.87,RU,1681851705
41,youhao,47.8667,128.8333,0.92,83,87,1.09,CN,1681851705
42,sitka,57.0531,-135.33,8.94,57,20,1.54,US,1681851705
43,otaru,43.1894,141.0022,5.57,93,100,2.64,JP,1681851705
44,pevek,69.7008,170.3133,-6.88,81,100,5.75,RU,1681851705
45,khandbari,27.3747,87.2039,22.11,30,9,2.33,NP,1681851705
46,inhambane,-23.865,35.3833,22.01,80,56,2.88,MZ,1681851705
47,svetlaya,46.5389,138.3297,2.58,67,100,1.68,RU,1681851705
48,sibolga,1.7427,98.7792,24.27,85,99,1.39,ID,1681851705
49,dargaville,-35.9333,173.8833,20.17,87,100,4.04,NZ,1681851705
50,mataura,-46.1927,168.8643,11.38,93,100,1.46,NZ,1681851705
51,kieta,-6.2167,155.6333,26.62,75,14,0.79,PG,1681851705
52,necochea,-38.5473,-58.7368,14.13,60,99,7.08,AR,1681851705
53,ulaangom,49.9811,92.0667,-4.57,33,8,1.56,MN,1681851705
54,saint-philippe,-21.3585,55.7679,23.77,81,37,4.92,RE,1681851705
55,port macquarie,-31.4333,152.9167,14.38,74,96,0.55,AU,1681851705
56,ushuaia,-54.8,-68.3,3.76,91,93,1.91,AR,1681851705
57,camacha,33.0833,-16.3333,16.68,68,40,8.75,PT,1681851705
58,yellowknife,62.456,-114.3525,6.98,42,23,8.05,CA,1681851705
59,vostok,46.4856,135.8833,1.57,75,88,1.15,RU,1681851705
60,kandrian,-6.2167,149.55,25.64,85,92,1.09,PG,1681851705
61,barrow,71.2906,-156.7887,-18.99,71,0,3.6,US,1681851705
62,mar del plata,-38.0023,-57.5575,16.16,59,100,4.02,AR,1681851705
63,norman wells,65.282,-126.8329,-3.87,85,100,2.54,CA,1681851705
64,kahului,20.8947,-156.47,27.2,60,40,3.6,US,1681851705
65,gejiu,23.306,103.1635,15.01,34,0,0.2,CN,1681851705
66,vanimo,-2.6741,141.3028,24.51,89,98,2.2,PG,1681851705
67,hualmay,-11.0964,-77.6139,25.66,72,86,5.77,PE,1681851705
68,gogrial,8.5332,28.1004,31.21,40,27,1.87,SS,1681851705
69,san ramon,37.7799,-121.978,16.62,45,40,5.66,US,1681851705
70,jamestown,42.097,-79.2353,2.06,87,100,4.02,US,1681851705
71,lincoln,40.8,-96.667,25.65,42,0,8.23,US,1681851705
72,upernavik,72.7868,-56.1549,-12.57,93,91,1.84,GL,1681851705
73,yumen,40.2833,97.2,6.11,23,100,7.56,CN,1681851705
74,sant pere de ribes,41.2667,1.7667,15.07,83,5,1.34,ES,1681851705
75,severo-kurilsk,50.6789,156.125,0.31,97,100,10.47,RU,1681851705
76,giyani,-23.3025,30.7187,18.58,59,0,1.09,ZA,1681851705
77,georgetown,5.4112,100.3354,26.96,89,20,0.0,MY,1681851705
78,san vicente,-26.6167,-54.1333,18.31,52,4,1.77,AR,1681851705
79,khatanga,71.9667,102.5,-26.88,100,98,0.64,RU,1681851705
80,nome,64.5011,-165.4064,-10.96,67,0,0.0,US,1681851705
81,ahlat,38.7518,42.4814,10.31,68,51,1.45,TR,1681851705
82,bambous virieux,-20.3428,57.7575,26.23,83,24,6.22,MU,1681851705
83,batagay,67.6333,134.6333,-11.66,95,100,1.72,RU,1681851705
84,hasaki,35.7333,140.8333,9.56,85,10,4.23,JP,1681851705
85,thompson,55.7435,-97.8558,-1.0,79,69,4.21,CA,1681851705
86,katherine,-14.4667,132.2667,15.18,88,46,1.54,AU,1681851705
87,uddevalla,58.3478,11.9424,6.66,68,99,2.33,SE,1681851705
88,mandalgovi,45.7625,106.2708,5.29,35,100,13.21,MN,1681851705
89,fairbanks,64.8378,-147.7164,-3.02,56,100,6.69,US,1681851705
90,kavieng,-2.5744,150.7967,27.37,75,60,0.41,PG,1681851705
91,faya,18.3851,42.4509,15.29,59,0,0.6,SA,1681851705
92,hithadhoo,-0.6,73.0833,28.53,70,100,2.22,MV,1681851705
93,sept-iles,50.2001,-66.3821,1.29,96,100,10.29,CA,1681851705
94,fort nelson,58.8053,-122.7002,9.41,65,100,5.36,CA,1681851705
95,derzhavinsk,51.1,66.3167,2.87,91,100,3.62,KZ,1681851705
96,alyangula,-13.8483,136.4192,26.27,75,97,4.25,AU,1681851705
97,faanui,-16.4833,-151.75,28.55,74,53,6.9,PF,1681851705
98,abiramam,9.4667,78.45,28.87,70,2,2.59,IN,1681851705
99,port elizabeth,-33.918,25.5701,17.83,98,0,0.89,ZA,1681851705
100,bengkulu,-3.8004,102.2655,24.65,89,100,1.51,ID,1681851705
101,ugoofaaru,5.6667,73.0,28.25,70,49,0.81,MV,1681851705
102,te anau,-45.4167,167.7167,8.57,89,13,0.32,NZ,1681851705
103,bluff,-46.6,168.3333,11.56,82,99,3.76,NZ,1681851705
104,deloraine,-41.5333,146.6667,10.44,15,81,1.45,AU,1681851705
105,new norfolk,-42.7826,147.0587,11.72,76,59,0.45,AU,1681851705
106,san juan de planes,14.9333,-88.7833,32.06,35,40,2.57,HN,1681851705
107,iquique,-20.2208,-70.1431,22.02,75,48,4.41,CL,1681851705
108,kharp,66.8014,65.8081,-11.75,75,53,4.38,RU,1681851705
109,qaanaaq,77.484,-69.3632,-14.9,80,0,1.83,GL,1681851705
110,bredasdorp,-34.5322,20.0403,14.91,90,60,1.65,ZA,1681851705
111,springbok,-29.6643,17.8865,21.5,26,36,0.12,ZA,1681851705
112,bagdarin,54.4333,113.6,-6.96,87,100,1.61,RU,1681851705
113,odesskoye,54.2111,72.9651,-4.73,48,0,2.08,RU,1681851705
114,moyale,3.5167,39.0584,19.65,86,94,1.11,KE,1681851705
115,port hardy,50.6996,-127.4199,7.61,66,96,5.83,CA,1681851705
116,kungurtug,50.5994,97.5228,-10.5,87,34,0.95,RU,1681851705
117,carnarvon,-24.8667,113.6333,22.73,36,6,7.37,AU,1681851705
118,muros,42.7762,-9.0603,14.91,63,46,1.88,ES,1681851705
119,kaitangata,-46.2817,169.8464,12.55,83,97,3.84,NZ,1681851705
120,chapais,49.7834,-74.8492,3.88,70,98,2.86,CA,1681851705
121,kagoro,9.6,8.3833,24.26,65,100,1.39,NG,1681851705
122,rocha,-34.4833,-54.3333,13.35,63,12,5.77,UY,1681851705
123,cape town,-33.9258,18.4232,18.54,73,30,2.24,ZA,1681851705
124,raga,8.4596,25.678,27.99,41,10,1.73,SS,1681851705
125,burnie,-41.0667,145.9167,11.92,87,89,5.09,AU,1681851705
126,provideniya,64.3833,-173.3,-2.94,80,100,1.0,RU,1681851705
127,codrington,-38.2667,141.9667,12.52,69,97,6.03,AU,1681851705
128,kaffrine,14.1059,-15.5508,33.99,23,100,7.99,SN,1681851705
129,waipawa,-41.4122,175.5153,13.81,97,100,2.47,NZ,1681851705
130,rio gallegos,-51.6226,-69.2181,9.82,72,98,5.8,AR,1681851705
131,tessalit,20.1986,1.0114,30.61,6,100,3.34,ML,1681851705
132,lavrentiya,65.5833,-171.0,-6.11,93,97,2.01,RU,1681851705
133,bubaque,11.2833,-15.8333,25.95,75,100,8.44,GW,1681851705
134,mongo,12.1844,18.693,34.76,23,93,2.75,TD,1681851705
135,aklavik,68.2191,-135.0107,-12.77,89,100,6.26,CA,1681851705
136,port lincoln,-34.7333,135.8667,14.47,58,46,5.3,AU,1681851705
137,atuona,-9.8,-139.0333,27.11,79,26,6.3,PF,1681851705
138,ossora,59.2353,163.0719,0.18,99,100,10.64,RU,1681851705
139,lubango,-14.9172,13.4925,15.78,79,17,1.56,AO,1681851705
140,jatai,-17.8814,-51.7144,23.56,84,100,2.08,BR,1681851705
141,ribeira grande,38.5167,-28.7,14.87,69,94,2.24,PT,1681851705
142,sotouboua,8.5667,0.9833,23.37,88,80,2.9,TG,1681851705
143,verdikoussa,39.7803,21.9722,4.99,78,21,1.14,GR,1681851705
144,komarno,47.7636,18.1226,12.81,82,100,2.31,SK,1681851705
145,lebu,-37.6167,-73.65,13.67,84,100,1.6,CL,1681851705
146,abu kamal,34.4506,40.9171,25.18,24,4,4.87,SY,1681851705
147,ayr,55.4627,-4.6339,8.99,71,0,6.17,GB,1681851705
148,lorengau,-2.0226,147.2712,27.4,80,100,3.34,PG,1681851705
149,abalak,58.1286,68.5944,-5.42,66,4,1.76,RU,1681851705
150,saskylakh,71.9167,114.0833,-25.29,100,100,2.26,RU,1681851705
151,geraldton,-28.7667,114.6,19.23,48,0,8.75,AU,1681851705
152,melfi,40.9965,15.6514,9.72,95,100,1.91,IT,1681851705
153,tupik,54.4253,119.9327,-13.42,96,59,0.8,RU,1681851705
154,tayginka,55.6244,60.5076,2.77,72,100,2.28,RU,1681851705
155,tasiilaq,65.6145,-37.6368,2.09,98,100,6.56,GL,1681851705
156,kibala,9.1104,18.3463,33.15,28,63,1.23,TD,1681851705
157,salalah,17.0151,54.0924,28.05,69,20,1.54,OM,1681851705
158,kodiak,57.79,-152.4072,3.73,45,0,8.23,US,1681851705
159,kailua,21.4022,-157.7394,26.94,73,76,2.68,US,1681851705
160,broome,42.2506,-75.833,7.48,60,100,4.63,US,1681851705
161,mahebourg,-20.4081,57.7,26.25,83,19,6.28,MU,1681851705
162,muravlenko,63.7898,74.523,-10.39,90,100,6.21,RU,1681851705
163,hot springs,34.5037,-93.0552,27.57,28,0,5.66,US,1681851705
164,ameca,20.55,-104.0333,33.6,11,97,2.24,MX,1681851705
165,tura,25.5198,90.2201,26.26,62,3,3.55,IN,1681851705
166,chiredzi,-21.05,31.6667,18.24,83,9,1.67,ZW,1681851705
167,weinan,34.5036,109.5089,16.66,71,0,0.62,CN,1681851705
168,anadyr,64.75,177.4833,-1.72,79,75,6.0,RU,1681851705
169,ponta do sol,32.6667,-17.1,18.35,53,70,2.7,PT,1681851705
170,sola,-13.8833,167.55,27.41,74,94,3.55,VU,1681851705
171,pauini,-7.7136,-66.9764,28.49,72,99,0.87,BR,1681851705
172,chokurdakh,70.6333,147.9167,-11.65,95,100,3.64,RU,1681851705
173,porto novo,6.4965,2.6036,28.21,79,79,3.64,BJ,1681851705
174,lalibela,12.0333,39.0333,19.77,50,91,2.21,ET,1681851705
175,parfenyevo,58.484,43.4088,3.41,88,9,1.67,RU,1681851705
176,kashi,39.4547,75.9797,11.12,16,92,4.33,CN,1681851705
177,sao caetano de odivelas,-0.75,-48.02,24.1,95,100,2.57,BR,1681851705
178,puro,12.4841,123.3827,26.57,80,99,4.19,PH,1681851705
179,puerto carreno,6.189,-67.4859,33.19,42,92,4.01,CO,1681851705
180,nikolskoye,59.7035,30.7861,7.94,88,69,3.74,RU,1681851705
181,ambilobe,-13.2,49.05,23.16,92,14,1.46,MG,1681851705
182,jizan,17.3333,42.6667,31.44,50,0,1.55,SA,1681851705
183,deputatskiy,69.3,139.9,-13.53,94,100,1.64,RU,1681851705
184,pedernales,18.0384,-71.744,25.6,76,84,0.55,DO,1681851705
185,dikson,73.5069,80.5464,-17.24,99,100,3.06,RU,1681851705
186,margate,51.3813,1.3862,9.39,86,93,2.68,GB,1681851705
187,saint-francois,46.4154,3.9054,9.42,89,0,2.06,FR,1681851705
188,bangalore,12.9762,77.6033,21.9,47,0,2.72,IN,1681851705
189,adrar,20.5022,-10.0711,30.07,22,21,3.71,MR,1681851705
190,jinchang,38.4953,102.1739,11.87,37,49,9.44,CN,1681851705
191,kintinku,-5.8833,35.2333,19.3,86,99,1.28,TZ,1681851705
192,airai,-8.9266,125.4092,15.49,98,64,1.31,TL,1681851705
193,souillac,-20.5167,57.5167,25.5,86,16,5.32,MU,1681851705
194,trelleborg,55.3751,13.1569,8.41,61,100,5.0,SE,1681851705
195,san cristobal,7.7669,-72.225,25.1,73,68,0.76,VE,1681851705
196,nebolchi,59.1239,33.3454,4.13,88,100,3.24,RU,1681851705
197,san patricio,28.017,-97.5169,25.05,76,84,8.63,US,1681851705
198,cherskiy,68.75,161.3,-3.16,83,100,0.94,RU,1681851705
199,yulara,-25.2406,130.9889,14.55,52,0,4.98,AU,1681851705
200,paita,-5.0892,-81.1144,28.31,65,99,4.87,PE,1681851705
201,ola,59.5833,151.2833,-4.01,74,86,5.26,RU,1681851705
202,taoudenni,22.6783,-3.9836,32.62,15,44,2.95,ML,1681851705
203,mto wa mbu,-3.35,35.85,19.63,94,100,1.34,TZ,1681851705
204,arrecife,28.963,-13.5477,19.99,68,75,5.66,ES,1681851705
205,russkaya polyana,49.417,31.9201,9.59,73,91,3.17,UA,1681851705
206,thinadhoo,0.5333,72.9333,28.25,72,85,1.29,MV,1681851705
207,dauriya,49.9333,116.8667,0.54,28,100,4.66,RU,1681851705
208,petrolina,-9.3986,-40.5008,31.03,48,20,3.09,BR,1681851705
209,clyde river,70.4692,-68.5914,-13.04,77,78,2.69,CA,1681851705
210,sao filipe,14.8961,-24.4956,23.36,77,40,5.89,CV,1681851705
211,noumea,-22.2763,166.4572,25.56,99,98,2.95,NC,1681851705
212,pilar,-9.5972,-35.9567,25.96,81,99,3.3,BR,1681851705
213,timra,62.487,17.3257,-0.18,86,0,2.06,SE,1681851705
214,san borja,-14.8167,-66.85,28.81,70,71,1.72,BO,1681851705
215,port hedland,-20.3167,118.5667,17.03,59,2,4.12,AU,1681851705
216,road town,18.4167,-64.6167,28.05,71,3,6.66,VG,1681851705
217,kondinskoye,59.6481,67.41,-8.12,87,53,2.12,RU,1681851705
218,emerald,-23.5333,148.1667,17.97,94,0,2.92,AU,1681851705
219,mirebalais,18.8333,-72.1053,30.4,60,71,2.59,HT,1681851705
220,lasa,46.6166,10.7002,9.09,92,77,1.19,IT,1681851705
221,flinders,-34.5833,150.8552,16.32,84,77,0.89,AU,1681851705
222,sulat,11.8103,125.4544,26.41,86,100,2.19,PH,1681851705
223,semey,50.4111,80.2275,1.59,96,100,8.35,KZ,1681851705
224,bossangoa,6.4926,17.4552,24.51,70,29,1.64,CF,1681851705
225,finnsnes,69.2296,17.9811,7.09,98,100,3.26,NO,1681851705
226,offa,8.15,4.7167,23.45,88,100,3.23,NG,1681851705
227,talnakh,69.4865,88.3972,-20.14,85,28,1.45,RU,1681851705
228,kamenka,51.3223,42.7678,8.15,54,100,3.31,RU,1681851705
229,aswan,24.0934,32.907,28.59,13,0,2.36,EG,1681851705
230,egvekinot,66.3167,-179.1667,-7.42,95,100,2.13,RU,1681851705
231,talara,-4.5772,-81.2719,30.42,66,40,6.17,PE,1681851705
232,namatanai,-3.6667,152.4333,26.35,79,57,1.56,PG,1681851705
233,luau,-10.7073,22.2247,18.35,96,99,1.67,AO,1681851705
234,port augusta,-32.5,137.7667,15.97,68,94,7.52,AU,1681851705
235,pakokku,21.3333,95.1,31.36,52,2,3.4,MM,1681851705
236,slave lake,55.2834,-114.769,6.99,49,0,3.09,CA,1681851705
237,igarka,67.4667,86.5833,-20.37,99,28,2.94,RU,1681851705
238,hervey bay,-25.2986,152.8535,21.04,73,70,5.61,AU,1681851705
239,los llanos de aridane,28.6585,-17.9182,17.86,84,0,3.09,ES,1681851705
240,grand forks,47.9417,-97.4337,10.96,35,40,6.17,US,1681851705
241,feldkirchen,48.148,11.7434,9.49,89,100,0.89,DE,1681851705
242,gigmoto,13.7796,124.39,25.86,84,93,2.28,PH,1681851705
243,victoria,22.2855,114.1577,28.03,91,44,1.34,HK,1681851705
244,mount isa,-20.7333,139.5,19.87,73,100,2.57,AU,1681851705
245,portland,45.5234,-122.6762,11.17,69,100,4.92,US,1681851705
246,meulaboh,4.1363,96.1285,24.82,91,97,2.15,ID,1681851705
247,mersing,2.4312,103.8405,25.63,89,99,0.49,MY,1681851705
248,champerico,14.3,-91.9167,30.75,58,39,5.84,GT,1681851705
249,shache,38.4167,77.2406,15.03,22,100,5.89,CN,1681851705
250,shimoda,34.6667,138.95,16.17,86,99,9.33,JP,1681851705
251,beloha,-25.1667,45.05,22.11,82,5,7.22,MG,1681851705
252,ust-tsilma,65.441,52.1498,0.0,84,100,1.98,RU,1681851705
253,vila franca do campo,37.7167,-25.4333,15.23,68,100,1.72,PT,1681851705
254,dunedin,-45.8742,170.5036,13.22,82,38,4.02,NZ,1681851705
255,oboyan,51.2098,36.2792,7.11,65,98,4.04,RU,1681851705
256,sao joao da barra,-21.6403,-41.0511,27.05,81,38,5.25,BR,1681851705
257,mackay,-21.15,149.2,20.38,75,2,5.58,AU,1681851705
258,sanmenxia,34.7747,111.1814,17.08,54,1,2.98,CN,1681851705
259,cayenne,4.9333,-52.3333,25.02,94,20,2.06,GF,1681851705
260,mityana,0.4175,32.0228,16.91,98,72,0.77,UG,1681851705
261,tiksi,71.6872,128.8694,-18.34,100,100,2.8,RU,1681851705
262,tautira,-17.7333,-149.15,27.91,77,85,6.93,PF,1681851705
263,marsa matruh,31.3525,27.2453,17.85,75,95,3.18,EG,1681851705
264,san andres,12.5847,-81.7006,30.01,62,75,5.14,CO,1681851705
265,senneterre,48.3835,-77.2328,3.38,92,100,3.89,CA,1681851705
266,luderitz,-26.6481,15.1594,20.19,49,0,1.68,NA,1681851705
267,elko,41.0002,-115.5012,2.01,55,85,13.41,US,1681851705
268,caravelas,-17.7125,-39.2481,26.06,84,12,4.29,BR,1681851705
269,saldanha,-33.0117,17.9442,15.59,82,9,4.56,ZA,1681851705
270,bukachacha,52.9833,116.9167,-3.09,55,79,1.4,RU,1681851705
271,avera,33.194,-82.5271,27.03,32,4,1.61,US,1681851705
272,nisia floresta,-6.0911,-35.2086,27.45,85,26,2.65,BR,1681851705
273,korla,41.7597,86.1469,9.29,35,100,6.46,CN,1681851705
274,ballina,-28.8667,153.5667,16.55,68,100,3.57,AU,1681851705
275,namibe,-15.1961,12.1522,25.62,71,49,2.03,AO,1681851705
276,butaritari,3.0707,172.7902,27.89,76,75,5.13,KI,1681851705
277,dombarovskiy,50.7587,59.5386,3.39,75,97,2.74,RU,1681851705
278,karratha,-20.7377,116.8463,23.17,38,5,4.84,AU,1681851705
279,jaciara,-15.9653,-54.9683,26.35,81,90,2.04,BR,1681851705
280,petropavlovsk-kamchatskiy,53.0452,158.6483,3.33,70,75,3.0,RU,1681851705
281,kruisfontein,-34.0033,24.7314,16.6,92,2,1.67,ZA,1681851705
282,pulaski,34.7668,-92.3001,28.09,31,20,5.14,US,1681851705
283,atar,20.5169,-13.0499,29.22,21,4,3.11,MR,1681851705
284,sao gabriel da cachoeira,-0.1303,-67.0892,28.96,76,82,0.37,BR,1681851705
285,terra santa,-2.1042,-56.4869,25.55,90,92,1.43,BR,1681851705
286,cidreira,-30.1811,-50.2056,21.27,56,39,1.77,BR,1681851705
287,sur,22.5667,59.5289,26.54,63,100,3.91,OM,1681851705
288,caloundra,-26.8,153.1333,18.4,81,100,5.41,AU,1681851705
289,bairnsdale,-37.8333,147.6167,11.14,94,17,2.29,AU,1681851705
290,lerwick,60.1545,-1.1494,7.0,82,61,4.02,GB,1681851705
291,itoman,26.1247,127.6694,23.21,88,100,9.26,JP,1681851705
292,broken hill,-31.95,141.4333,13.59,66,1,5.42,AU,1681851705
293,antofagasta,-23.65,-70.4,18.6,76,49,4.48,CL,1681851705
294,ingleside,27.8778,-97.2117,25.13,100,40,7.72,US,1681851705
295,mwinilunga,-11.7358,24.4293,16.07,96,82,1.75,ZM,1681851705
296,yatou,37.15,122.3833,8.8,76,0,1.61,CN,1681851705
297,sawtell,-30.3833,153.1,17.01,82,75,3.6,AU,1681851705
298,richards bay,-28.783,32.0377,19.18,90,0,3.31,ZA,1681851705
299,pacific grove,36.6177,-121.9166,16.32,59,0,5.66,US,1681851705
300,kindu,-2.95,25.95,21.19,98,100,0.62,CD,1681851705
301,half moon bay,37.4636,-122.4286,17.11,42,0,6.69,US,1681851705
302,suyan,6.0603,125.3853,24.5,86,20,1.5,PH,1681851705
303,aripuana,-9.1667,-60.6333,25.64,96,100,1.22,BR,1681851705
304,cap malheureux,-19.9842,57.6142,26.37,77,8,2.24,MU,1681851705
305,port blair,11.6667,92.75,27.39,84,94,3.05,IN,1681851705
306,irbeyskoye,55.6428,95.4522,-9.79,72,100,8.29,RU,1681851705
307,skibotn,69.3913,20.2679,5.35,97,100,3.73,NO,1681851705
308,lac du bonnet,50.2536,-96.0612,8.84,29,100,3.92,CA,1681851705
309,vanavara,60.34,102.2797,-11.78,89,100,5.88,RU,1681851705
310,beyneu,45.3167,55.2,9.31,36,16,6.21,KZ,1681851705
311,aktash,50.3,87.7333,-19.69,91,86,2.25,RU,1681851705
312,posadas,-27.3671,-55.8961,23.71,38,0,5.14,AR,1681851705
313,bonavista,48.6499,-53.1147,-0.57,83,100,4.69,CA,1681851705
314,labrea,-7.2586,-64.7981,27.89,82,100,0.66,BR,1681851705
315,sabang,5.8933,95.3214,28.08,76,97,2.07,ID,1681851705
316,grindavik,63.8424,-22.4338,8.26,100,100,5.14,IS,1681851705
317,quelimane,-17.8786,36.8883,20.65,83,1,1.13,MZ,1681851705
318,kendari,-3.945,122.4989,23.98,95,50,0.77,ID,1681851705
319,torbay,47.6666,-52.7314,2.44,89,100,1.79,CA,1681851705
320,minggang,32.4586,114.0486,18.17,87,99,3.31,CN,1681851705
321,loei,17.4167,101.5,25.25,55,0,2.59,TH,1681851705
322,fortuna,40.5982,-124.1573,13.29,61,100,3.13,US,1681851705
323,kasempa,-13.4584,25.8338,19.38,80,98,2.16,ZM,1681851705
324,gawan,28.4333,78.35,28.78,26,29,2.6,IN,1681851705
325,ilulissat,69.2167,-51.1,-7.27,91,99,1.83,GL,1681851705
326,dzilam gonzalez,21.2833,-88.9333,29.17,45,0,5.31,MX,1681851705
327,pyapon,16.2833,95.6833,26.45,84,10,4.36,MM,1681851705
328,esperance,-33.8667,121.9,15.33,55,94,1.47,AU,1681851705
329,berdigestyakh,62.0989,126.6992,-9.63,97,97,1.44,RU,1681851705
330,walvis bay,-22.9575,14.5053,22.53,57,77,0.4,NA,1681851705
331,barranco,9.5167,-82.7,28.84,67,73,2.12,PA,1681851705
332,hamilton,39.1834,-84.5333,18.88,30,0,7.2,US,1681851705
333,martapura,-3.4167,114.85,25.05,100,100,1.03,ID,1681851705
334,alice town,25.7167,-79.3,23.92,64,31,6.1,BS,1681851705
335,ketchikan,55.3422,-131.6461,9.26,49,0,4.63,US,1681851705
336,maun,-19.9833,23.4167,20.05,37,5,3.0,BW,1681851705
337,kologriv,58.8275,44.3178,3.94,92,87,1.22,RU,1681851705
338,borogontsy,62.6683,131.1683,-6.61,96,100,1.68,RU,1681851705
339,inuvik,68.3499,-133.7218,-11.06,88,100,5.26,CA,1681851705
340,seoul,37.5683,126.9778,10.78,96,20,1.54,KR,1681851705
341,touros,-5.1989,-35.4608,26.25,82,79,3.63,BR,1681851705
342,kapit,2.0167,112.9333,24.03,99,100,0.25,MY,1681851705
343,ahipara,-35.1667,173.1667,20.52,88,98,4.24,NZ,1681851705
344,eyl,7.9803,49.8164,27.61,68,6,4.96,SO,1681851705
345,manavalakurichi,8.1333,77.3,27.45,81,5,1.0,IN,1681851705
346,soyo,-6.1349,12.3689,27.0,80,96,1.3,AO,1681851705
347,baykit,61.67,96.37,-8.18,97,100,1.2,RU,1681851705
348,vardo,70.3705,31.1107,2.99,81,75,8.75,NO,1681851705
349,flagstaff,35.1981,-111.6513,18.11,15,0,9.77,US,1681851705
350,haines junction,60.7522,-137.5108,1.42,81,100,2.35,CA,1681851705
351,stratham,43.024,-70.9137,12.66,53,100,5.14,US,1681851705
352,maraa,-1.8333,-65.3667,26.72,85,100,1.0,BR,1681851705
353,baghmara,23.795,86.2085,31.22,15,0,2.71,IN,1681851705
354,alofi,-19.0595,-169.9187,23.94,23,100,1.54,NU,1681851705
355,monrovia,6.3005,-10.7969,26.87,82,96,3.06,LR,1681851705
356,muromtsevo,56.3724,75.2418,-8.62,70,1,1.7,RU,1681851705
357,safranbolu,41.2508,32.6942,11.49,87,69,1.39,TR,1681851705
358,ratnagiri,16.9833,73.3,26.8,83,5,1.03,IN,1681851705
359,ascension,30.2169,-90.9001,22.26,55,75,2.57,US,1681851705
360,asimion,35.05,25.1,12.43,87,2,2.42,GR,1681851705
361,plerin,48.5425,-2.7798,9.55,84,100,5.66,FR,1681851705
362,tuatapere,-46.1333,167.6833,11.71,87,91,1.16,NZ,1681851705
363,ostrovnoy,68.0531,39.5131,1.41,99,100,2.48,RU,1681851705
364,kirakira,-10.4544,161.9205,26.44,82,95,2.46,SB,1681851705
365,mantenopolis,-18.8625,-41.1228,25.79,60,72,1.28,BR,1681851705
366,tagab,34.855,69.6492,14.12,78,100,0.62,AF,1681851705
367,ronne,55.1009,14.7066,5.95,65,62,6.69,DK,1681851705
368,oron,4.8256,8.2343,26.61,84,88,1.68,NG,1681851705
369,batagay-alyta,67.8006,130.4114,-16.32,97,100,1.72,RU,1681851705
370,pringsewu,-5.3582,104.9744,23.17,98,39,1.22,ID,1681851705
371,jutai,-5.1833,-68.9,31.65,55,75,0.9,BR,1681851705
372,westport,41.1415,-73.3579,14.97,41,0,8.75,US,1681851705
373,waingapu,-9.6567,120.2641,24.75,89,95,3.21,ID,1681851705
374,rincon,32.296,-81.2354,25.98,21,20,4.12,US,1681851705
375,hammerfest,70.6634,23.6821,6.25,81,75,5.14,NO,1681851705
376,macusani,-14.0833,-70.4333,7.3,76,100,1.71,PE,1681851705
377,hambantota,6.1241,81.1185,26.51,82,12,1.92,LK,1681851705
378,lusambo,-4.9667,23.45,20.97,99,100,1.25,CD,1681851705
379,cockburn town,21.4612,-71.1419,25.85,75,39,5.73,TC,1681851705
380,karatau,43.1667,70.4667,2.1,62,1,1.87,KZ,1681851705
381,ginda,30.6945,78.4932,14.97,59,100,3.03,IN,1681851705
382,saint anthony,45.0205,-93.218,14.03,31,0,4.12,US,1681851705
383,lata,40.1629,-8.3327,18.29,49,78,0.47,PT,1681851705
384,kaili,-3.4626,120.2147,19.88,89,99,1.22,ID,1681851705
385,tomatlan,19.9333,-105.25,33.17,28,100,5.28,MX,1681851705
386,pangnirtung,66.1451,-65.7125,-12.83,93,13,0.7,CA,1681851705
387,nyurba,63.2842,118.3319,-16.1,97,96,1.9,RU,1681851705
388,mbandaka,0.0487,18.2603,24.38,81,77,1.62,CD,1681851705
389,leningradskiy,69.3833,178.4167,-3.35,78,90,1.99,RU,1681851705
390,havoysund,70.9963,24.6622,6.13,95,100,13.92,NO,1681851705
391,kavaratti,10.5669,72.642,28.24,75,9,4.37,IN,1681851705
392,rogers,36.3668,-95.5836,28.84,46,0,11.32,US,1681851705
393,peleduy,59.6289,112.7406,-11.95,97,100,0.91,RU,1681851705
394,qiongshan,20.0058,110.3542,25.44,83,0,6.53,CN,1681851705
395,verkhnevilyuysk,63.4453,120.3167,-11.69,97,94,2.02,RU,1681851705
396,ichinoseki,38.9167,141.1333,9.87,85,100,0.79,JP,1681851705
397,buenos aires,-34.6132,-58.3772,14.99,57,98,0.89,AR,1681851705
398,takhtamygda,54.1,123.5667,-7.68,91,26,1.13,RU,1681851705
399,dobrinka,52.1653,40.4731,8.2,63,99,2.62,RU,1681851705
400,puerto del rosario,28.5004,-13.8627,20.86,64,75,5.14,ES,1681851705
401,chhatarpur,24.9,79.6,29.32,17,3,3.63,IN,1681851705
402,weligama,5.9667,80.4167,26.22,84,28,1.63,LK,1681851705
403,bourail,-21.5667,165.4833,24.17,85,98,2.03,NC,1681851705
404,iqaluit,63.7506,-68.5145,-12.39,72,100,7.6,CA,1681851705
405,sulangan,11.1373,123.7228,27.65,76,99,4.17,PH,1681851705
406,sainte-anne-des-monts,49.124,-66.4924,5.81,92,100,2.87,CA,1681851705
407,edd,13.9297,41.6925,31.84,52,75,7.59,ER,1681851705
408,tottori,35.5,134.2333,14.44,93,100,0.89,JP,1681851705
409,kousseri,12.0769,15.0306,34.83,10,40,3.13,CM,1681851705
410,jibuti,11.5,42.5,24.78,74,48,7.7,DJ,1681851705
411,teluk nibung,3.001,99.8164,24.92,92,100,1.76,ID,1681851705
412,tromso,69.6496,18.957,6.32,81,100,10.29,NO,1681851705
413,athens,37.9795,23.7162,17.45,68,40,1.34,GR,1681851705
414,valley,45.1277,-116.1262,-2.91,74,100,2.33,US,1681851705
415,suslonger,56.3156,48.2531,6.89,80,93,0.69,RU,1681851705
416,banda aceh,5.5577,95.3222,26.88,82,93,1.46,ID,1681851705
417,oyama,36.3,139.8,13.1,80,0,1.62,JP,1681851705
418,sawakin,19.1059,37.3321,25.47,47,0,3.64,SD,1681851705
419,rondonopolis,-16.4708,-54.6356,27.84,72,99,2.7,BR,1681851705
420,pascagoula,30.3658,-88.5561,23.73,37,0,2.06,US,1681851705
421,komsomolskiy,40.4272,71.7189,4.4,75,3,2.06,UZ,1681851705
422,bandarbeyla,9.4942,50.8122,27.41,71,8,3.34,SO,1681851705
423,aktau,43.65,51.2,10.32,27,64,10.43,KZ,1681851705
424,sikeston,36.8767,-89.5879,26.98,21,0,5.66,US,1681851705
425,chapleau,47.8405,-83.4034,-0.24,68,100,5.2,CA,1681851705
426,valdivia,-39.8142,-73.2459,14.05,99,100,1.06,CL,1681851705
427,zhicheng,30.2956,111.5047,20.83,92,100,1.39,CN,1681851705
428,krasnoselkup,65.7,82.4667,-18.51,97,8,4.16,RU,1681851705
429,broadview heights,41.3139,-81.6851,9.02,58,100,7.72,US,1681851705
430,sibenik,43.7272,15.9058,14.65,70,100,0.89,HR,1681851705
431,trelew,-43.249,-65.3051,18.5,36,100,8.82,AR,1681851705
432,brownwood,31.7093,-98.9912,30.62,44,40,7.2,US,1681851705
433,liverpool,53.4106,-2.9779,10.42,58,0,6.69,GB,1681851705
434,kaseda,31.4167,130.3167,19.16,94,100,1.81,JP,1681851705
435,naze,28.3667,129.4833,19.08,87,95,4.01,JP,1681851705
436,troitskoye,52.9821,84.6757,-8.36,95,100,2.4,RU,1681851705
437,polyarnyy,69.1989,33.4478,0.82,87,100,5.45,RU,1681851705
438,takaka,-40.85,172.8,16.42,94,100,0.92,NZ,1681851705
439,camana,-16.6228,-72.7111,22.35,75,83,4.16,PE,1681851705
440,murgab,37.4966,61.9714,7.93,46,50,2.06,TM,1681851705
441,safidon,29.4167,76.6667,28.1,28,28,1.75,IN,1681851705
442,gambela,8.25,34.5833,25.72,73,38,1.63,ET,1681851705
443,dzheyrakh,42.8228,44.6756,1.66,79,100,4.68,RU,1681851705
444,texarkana,33.4251,-94.0477,28.12,35,0,8.75,US,1681851705
445,xining,36.6167,101.7667,12.6,33,1,0.82,CN,1681851705
446,basco,20.4487,121.9702,26.34,88,9,8.22,PH,1681851705
447,vao,-22.6667,167.4833,25.57,77,96,7.16,NC,1681851705
448,praia da vitoria,38.7333,-27.0667,14.29,60,100,2.07,PT,1681851705
449,bloemfontein,-29.1211,26.214,14.24,36,0,0.73,ZA,1681851705
450,santa fe,-31.6333,-60.7,22.23,28,4,3.58,AR,1681851705
451,bowen,-20.0167,148.2333,22.41,83,0,4.4,AU,1681851705
452,omboue,-1.5746,9.2618,26.56,87,100,2.17,GA,1681851705
453,likasi,-10.9814,26.7333,16.05,97,53,1.04,CD,1681851705
454,maceio,-9.6658,-35.7353,26.69,89,0,3.6,BR,1681851705
455,mukhen,48.1,136.1,4.35,71,99,1.79,RU,1681851705
456,verkhnyaya inta,65.9811,60.3094,-1.27,83,99,4.46,RU,1681851705
457,lang son,21.8333,106.7333,22.81,97,31,0.67,VN,1681851705
458,rangapara,26.8167,92.65,25.24,40,1,1.59,IN,1681851705
459,samoded,63.6083,40.5111,-0.38,93,97,0.72,RU,1681851705
460,galesburg,40.9478,-90.3712,17.98,44,0,3.6,US,1681851705
461,karlstadt,49.9603,9.7722,12.05,82,96,3.93,DE,1681851705
462,auburn,47.3073,-122.2284,10.23,71,75,5.66,US,1681851705
463,lugovoy,42.9472,72.7644,1.92,79,2,2.04,KZ,1681851705
464,lapy,52.9911,22.8842,9.61,85,72,3.19,PL,1681851705
465,samarai,-10.6167,150.6667,26.27,76,39,2.14,PG,1681851705
466,akola,20.7333,77.0,33.53,19,67,2.91,IN,1681851705
467,yeppoon,-23.1333,150.7333,16.88,80,0,5.25,AU,1681851705
468,san luis,-33.295,-66.3356,17.46,26,55,4.29,AR,1681851705
469,katangli,51.7102,143.2326,-0.38,78,4,4.22,RU,1681851705
470,defiance,41.3334,-84.45,12.86,37,0,6.17,US,1681851705
471,nouakchott,18.0858,-15.9785,20.96,77,91,7.38,MR,1681851705
472,qinggang,46.6833,126.0833,3.81,76,82,3.05,CN,1681851705
473,la asuncion,11.0333,-63.8628,30.85,48,84,9.26,VE,1681851705
474,riyadh,24.6877,46.7219,25.08,48,100,2.29,SA,1681851705
475,aanekoski,62.6946,25.818,2.04,94,100,1.8,FI,1681851705
476,brookhaven,31.5791,-90.4407,24.02,50,58,3.1,US,1681851705
477,mamit,23.9333,92.4833,20.8,64,0,1.33,IN,1681851705
478,illapel,-31.6308,-71.1653,21.87,36,0,2.76,CL,1681851705
479,le port,-20.9373,55.2919,24.98,92,5,3.67,RE,1681851705
480,lagoa,39.05,-27.9833,14.31,67,96,6.5,PT,1681851705
481,saskatoon,52.1168,-106.6345,-0.01,100,100,5.66,CA,1681851705
482,sarkand,45.41,79.9186,-1.94,68,7,2.22,KZ,1681851705
483,rizhao,35.4275,119.4553,9.98,95,49,3.48,CN,1681851705
484,lazarev,52.225,141.5131,-1.59,93,50,6.01,RU,1681851705
485,bata,1.8639,9.7658,27.2,87,93,2.87,GQ,1681851705
486,pisco,-13.7,-76.2167,25.03,69,68,10.8,PE,1681851705
487,navahrudak,53.6,25.8333,7.7,79,100,2.69,BY,1681851705
488,presidencia roque saenz pena,-26.7852,-60.4388,23.92,55,5,1.49,AR,1681851705
489,ust-kulom,61.6864,53.6902,-4.31,98,29,1.63,RU,1681851705
490,ibb,13.9667,44.1833,17.33,67,6,2.1,YE,1681851705
491,thunder bay,48.4001,-89.3168,2.98,86,8,5.02,CA,1681851705
492,ekibastuz,51.6667,75.3667,-3.79,94,100,4.7,KZ,1681851705
493,coahuayana,18.7333,-103.6833,32.56,39,49,3.38,MX,1681851705
494,santa vitoria do palmar,-33.5189,-53.3681,15.83,41,44,6.37,BR,1681851705
495,innisfail,-17.5333,146.0333,22.32,89,50,2.34,AU,1681851705
496,ilinskiy,55.619,38.1182,10.84,47,0,2.0,RU,1681851705
497,kuching,1.55,110.3333,27.12,83,20,1.54,MY,1681851705
498,arroyos y esteros,-25.0667,-57.1,22.86,57,5,2.38,PY,1681851705
499,tibiri,13.5627,7.0485,32.52,30,55,1.18,NE,1681851705
500,houston,29.7633,-95.3633,29.09,49,40,9.26,US,1681851705
501,altay,47.8667,88.1167,-7.23,60,0,1.76,CN,1681851705
502,vaitape,-16.5167,-151.75,28.55,74,53,6.89,PF,1681851705
503,onomichi,34.4167,133.2,15.74,97,100,1.88,JP,1681851705
504,klaksvik,62.2266,-6.589,8.51,88,88,7.28,FO,1681851705
505,vidim,56.4088,103.1106,-9.34,76,19,2.72,RU,1681851705
506,narsaq,60.9167,-46.05,8.12,88,24,1.12,GL,1681851705
507,constitucion,-35.3333,-72.4167,16.2,58,34,7.58,CL,1681851705
508,mehran,33.1222,46.1646,24.95,34,3,2.75,IR,1681851705
509,najran,17.4924,44.1277,26.71,36,91,2.33,SA,1681851705
510,saint-denis,48.9167,2.3333,12.64,74,0,5.14,FR,1681851705
511,saint-leu,-21.15,55.2833,24.46,92,4,1.62,RE,1681851705
512,turayf,31.6725,38.6637,21.35,43,64,3.15,SA,1681851705
513,tilichiki,60.4667,166.1,-0.73,89,100,14.32,RU,1681851705
514,lashio,22.9333,97.75,20.13,40,0,0.6,MM,1681851705
515,havelock,34.8791,-76.9013,26.1,39,0,4.12,US,1681851705
516,kikwit,-5.041,18.8162,23.3,85,73,1.29,CD,1681851705
517,kalanchak,46.2562,33.2907,9.6,95,77,2.93,UA,1681851705
518,fandriana,-20.2333,47.3833,15.6,89,100,1.17,MG,1681851705
519,isangel,-19.55,169.2667,29.06,79,75,3.6,VU,1681851705
520,aberdeen,57.1437,-2.0981,7.27,87,28,2.06,GB,1681851705
521,asau,46.4333,26.4,6.51,96,100,1.11,RO,1681851705
522,marawi,7.9986,124.2928,20.47,92,49,1.14,PH,1681851705
523,luwingu,-10.2621,29.9271,16.43,97,89,1.23,ZM,1681851705
524,zhezkazgan,47.8043,67.7144,3.8,48,0,1.85,KZ,1681851705
525,newcastle,-32.9272,151.7765,17.06,90,99,2.06,AU,1681851705
526,husavik,66.0449,-17.3389,7.47,87,100,4.54,IS,1681851705
527,bogorodskoye,56.55,37.8833,5.97,65,45,2.68,RU,1681851705
528,quatre cocos,-20.2078,57.7625,26.16,84,26,5.92,MU,1681851705
529,huarmey,-10.0681,-78.1522,26.47,72,81,5.38,PE,1681851705
530,college place,46.0493,-118.3883,13.18,44,75,6.17,US,1681851705
531,viedma,-40.8135,-62.9967,16.35,45,97,8.43,AR,1681851705
532,ofunato,39.0717,141.7167,9.98,86,100,2.11,JP,1681851705
533,cabedelo,-6.9811,-34.8339,28.37,80,97,3.02,BR,1681851705
534,manaure,11.7751,-72.4445,27.61,68,8,7.33,CO,1681851705
535,qaqortoq,60.7167,-46.0333,0.83,88,25,1.86,GL,1681851705
536,monte escobedo,22.3,-103.5833,24.71,12,34,7.38,MX,1681851705
537,sari,36.5633,53.0601,10.27,79,0,0.89,IR,1681851705
538,sangar,63.9242,127.4739,-8.0,91,100,1.06,RU,1681851705
539,fort frances,48.5999,-93.4003,10.09,31,96,1.34,CA,1681851705
540,diffa,13.3154,12.6113,32.05,8,7,1.89,NE,1681851705
541,changji,44.0167,87.3167,3.44,87,75,3.0,CN,1681851705
542,bulungu,-4.55,18.6,22.8,90,42,1.54,CD,1681851705
543,sobolevo,54.4299,31.8996,8.26,81,90,3.88,RU,1681851705
